City_ID,City,Lat,Lng,Max Temp,Humidity,Cloudiness,Wind Speed,Country,Date
0,margaret river,-33.95,115.0667,17.51,89,4,3.04,AU,2024-02-01
1,ilulissat,69.2167,-51.1,-19.99,71,75,4.63,GL,2024-02-01
2,petropavlovsk-kamchatsky,53.0452,158.6483,-14.67,86,75,4.0,RU,2024-02-01
3,nizhniy novgorod,56.3287,44.002,-1.27,100,100,3.0,RU,2024-02-01
4,souillac,-20.5167,57.5167,26.3,89,75,5.14,MU,2024-02-01
5,georgetown,5.4112,100.3354,27.75,88,20,2.06,MY,2024-02-01
6,yellowknife,62.456,-114.3525,-11.44,96,100,6.71,CA,2024-02-01
7,revda,56.801,59.9303,-16.38,99,99,1.72,RU,2024-02-01
8,igarka,67.4667,86.5833,-15.46,94,100,9.36,RU,2024-02-01
9,adamstown,-25.066,-130.1015,24.89,86,42,9.59,PN,2024-02-01
10,bandarbeyla,9.4942,50.8122,25.05,75,72,3.34,SO,2024-02-01
11,isafjordur,66.0755,-23.124,0.23,88,72,3.81,IS,2024-02-01
12,villiers,-27.0303,28.6006,18.13,38,86,5.35,ZA,2024-02-01
13,tolanaro,-25.0319,46.9987,25.04,83,75,6.17,MG,2024-02-01
14,olonkinbyen,70.9221,-8.7187,-7.04,62,34,5.47,SJ,2024-02-01
15,atafu village,-8.5421,-172.5159,26.75,89,100,8.23,TK,2024-02-01
16,krasnovishersk,60.4078,57.082,-4.77,94,100,2.97,RU,2024-02-01
17,bredasdorp,-34.5322,20.0403,21.6,92,93,4.3,ZA,2024-02-01
18,ushuaia,-54.8,-68.3,17.81,34,40,11.32,AR,2024-02-01
19,san luis de la loma,17.2706,-100.8939,28.74,65,72,2.47,MX,2024-02-01
20,mount gambier,-37.8333,140.7667,12.54,93,2,2.09,AU,2024-02-01
21,badger,64.8,-147.5333,-36.86,68,20,0.0,US,2024-02-01
22,chachapoyas,-6.2317,-77.869,16.8,87,100,1.51,PE,2024-02-01
23,hilo,19.7297,-155.09,26.85,64,0,1.79,US,2024-02-01
24,antibes,43.5624,7.1278,10.63,82,0,2.57,FR,2024-02-01
25,meulaboh,4.1363,96.1285,25.15,90,73,2.05,ID,2024-02-01
26,mitu,1.1983,-70.1733,33.08,53,93,0.24,CO,2024-02-01
27,port saint john's,-31.6229,29.5448,24.43,81,100,6.75,ZA,2024-02-01
28,kyshtovka,56.555,76.6271,-18.14,99,73,2.68,RU,2024-02-01
29,port-aux-francais,-49.35,70.2167,6.67,85,78,3.92,TF,2024-02-01
30,mariental,-24.6333,17.9667,27.9,39,78,4.05,NA,2024-02-01
31,ulsteinvik,62.3432,5.8487,5.97,68,100,5.81,NO,2024-02-01
32,nadi,-17.8,177.4167,27.0,83,75,1.54,FJ,2024-02-01
33,pangody,65.85,74.4859,-12.47,91,100,8.44,RU,2024-02-01
34,mount pearl,47.5166,-52.7813,-2.25,80,75,5.66,CA,2024-02-01
35,port mathurin,-19.6833,63.4167,27.41,87,7,13.49,MU,2024-02-01
36,san antonio de pale,-1.4014,5.6325,27.84,77,66,1.67,GQ,2024-02-01
37,hermanus,-34.4187,19.2345,23.22,85,7,6.17,ZA,2024-02-01
38,fort st. john,56.2499,-120.8529,1.94,80,75,2.06,CA,2024-02-01
39,zahedan,29.4963,60.8629,4.95,42,0,0.0,IR,2024-02-01
40,qaqortoq,60.7167,-46.0333,-13.32,90,86,2.78,GL,2024-02-01
41,puerto ayora,-0.7393,-90.3518,29.98,70,100,3.12,EC,2024-02-01
42,camalu,30.85,-116.0667,13.7,85,100,8.25,MX,2024-02-01
43,letlhakane,-21.4167,25.5833,23.56,53,32,6.59,BW,2024-02-01
44,weno,7.4515,151.8468,26.97,89,75,6.17,FM,2024-02-01
45,iqaluit,63.7506,-68.5145,-31.15,62,100,3.6,CA,2024-02-01
46,takoradi,4.8845,-1.7554,27.5,80,10,3.17,GH,2024-02-01
47,grytviken,-54.2811,-36.5092,5.65,55,42,4.66,GS,2024-02-01
48,udachny,66.4167,112.4,-30.16,99,97,2.14,RU,2024-02-01
49,holualoa,19.6228,-155.9522,25.31,69,100,4.12,US,2024-02-01
50,vilyuchinsk,52.9306,158.4028,-13.85,95,100,3.3,RU,2024-02-01
51,sao vicente,-23.9631,-46.3919,27.19,62,75,3.13,BR,2024-02-01
52,jarocin,51.9727,17.5026,3.17,91,97,8.22,PL,2024-02-01
53,opuwo,-18.0607,13.84,24.35,59,99,3.85,NA,2024-02-01
54,gadzhiyevo,69.2551,33.3362,-1.2,95,100,8.43,RU,2024-02-01
55,puerto natales,-51.7236,-72.4875,16.25,36,75,13.38,CL,2024-02-01
56,waitangi,-43.9535,-176.5597,16.57,96,100,1.34,NZ,2024-02-01
57,axim,4.8699,-2.2405,26.81,86,11,3.08,GH,2024-02-01
58,kodiak,57.79,-152.4072,-2.27,86,100,4.12,US,2024-02-01
59,cockburn town,21.4612,-71.1419,23.79,60,10,9.24,TC,2024-02-01
60,whitehorse,60.7161,-135.0538,-15.57,54,100,4.12,CA,2024-02-01
61,blackmans bay,-43.0167,147.3167,13.07,55,64,1.34,AU,2024-02-01
62,parang,7.3704,124.2697,23.65,94,100,1.62,PH,2024-02-01
63,paimpol,48.7784,-3.0438,9.18,88,98,2.33,FR,2024-02-01
64,west island,-12.1568,96.8225,26.99,94,100,2.06,CC,2024-02-01
65,punta arenas,-53.15,-70.9167,15.06,44,20,19.03,CL,2024-02-01
66,edinburgh of the seven seas,-37.0676,-12.3116,18.49,88,97,7.5,SH,2024-02-01
67,rabo de peixe,37.8,-25.5833,17.77,99,40,5.14,PT,2024-02-01
68,avarua,-21.2078,-159.775,29.03,74,98,2.57,CK,2024-02-01
69,broken hill,-31.95,141.4333,17.72,54,0,7.28,AU,2024-02-01
70,kilju,40.9642,129.3278,-10.32,88,78,1.65,KP,2024-02-01
71,anadyr,64.75,177.4833,-16.72,71,100,12.0,RU,2024-02-01
72,flying fish cove,-10.4217,105.6791,24.82,100,75,0.0,CX,2024-02-01
73,dabakala,8.3667,-4.4333,30.1,19,66,1.7,CI,2024-02-01
74,okha,53.5739,142.9478,-21.02,94,100,8.62,RU,2024-02-01
75,wailua homesteads,22.0669,-159.378,23.96,76,100,1.54,US,2024-02-01
76,tergnier,49.6561,3.3011,3.94,79,100,0.86,FR,2024-02-01
77,san pedro pochutla,15.7333,-96.4667,29.84,43,94,3.36,MX,2024-02-01
78,lihue,21.9789,-159.3672,24.3,83,100,1.54,US,2024-02-01
79,papatowai,-46.5619,169.4708,11.89,91,100,1.85,NZ,2024-02-01
80,nar'yan-mar,67.6713,53.087,-2.72,93,100,7.6,RU,2024-02-01
81,banff,51.1762,-115.5698,11.57,46,33,2.06,CA,2024-02-01
82,beas de segura,38.2524,-2.8888,10.75,47,9,1.25,ES,2024-02-01
83,longyearbyen,78.2186,15.6401,-10.09,73,75,2.57,SJ,2024-02-01
84,karpinsk,59.7654,60.0085,-19.88,100,100,1.2,RU,2024-02-01
85,oyama,36.3,139.8,6.44,38,92,2.57,JP,2024-02-01
86,namibe,-15.1961,12.1522,25.19,81,100,5.01,AO,2024-02-01
87,hwange,-18.3693,26.5019,20.88,85,74,1.22,ZW,2024-02-01
88,hamilton,39.1834,-84.5333,13.69,59,0,6.17,US,2024-02-01
89,les cayes,18.2,-73.75,25.49,73,93,4.57,HT,2024-02-01
90,klyuchi,52.2667,79.1667,-6.75,93,100,4.41,RU,2024-02-01
91,bethel,41.3712,-73.414,6.53,71,100,3.6,US,2024-02-01
92,keetmanshoop,-26.5833,18.1333,25.51,50,100,7.72,NA,2024-02-01
93,yibin,28.7667,104.6238,11.29,69,100,0.82,CN,2024-02-01
94,enewetak,11.3474,162.3373,26.27,83,99,12.55,MH,2024-02-01
95,sola,-13.8833,167.55,28.73,78,100,5.47,VU,2024-02-01
96,tommot,58.9564,126.2925,-33.02,99,100,0.81,RU,2024-02-01
97,yunyang,33.4474,112.7142,-3.02,58,100,4.34,CN,2024-02-01
98,santa marta,11.2408,-74.199,34.03,65,20,6.17,CO,2024-02-01
99,hawaiian paradise park,19.5933,-154.9731,27.16,74,0,1.54,US,2024-02-01
100,invercargill,-46.4,168.35,11.12,97,100,1.79,NZ,2024-02-01
101,mount pleasant,32.7941,-79.8626,17.39,64,0,5.14,US,2024-02-01
102,afaahiti,-17.75,-149.2833,28.93,75,66,7.4,PF,2024-02-01
103,constantia,44.1833,28.65,1.5,57,0,4.09,RO,2024-02-01
104,polyarnyy,69.1989,33.4478,-0.93,94,100,8.62,RU,2024-02-01
105,kismayo,-0.3582,42.5454,26.26,84,100,5.29,SO,2024-02-01
106,sao joao da barra,-21.6403,-41.0511,27.05,83,100,3.75,BR,2024-02-01
107,villa canas,-34.0057,-61.6076,40.57,13,33,4.37,AR,2024-02-01
108,malvan,16.0667,73.4667,20.84,81,10,4.28,IN,2024-02-01
109,stephenville,32.2207,-98.2023,22.74,51,0,5.14,US,2024-02-01
110,zag,46.9441,99.165,-26.26,86,20,1.71,MN,2024-02-01
111,albany,42.6001,-73.9662,3.83,85,100,0.89,US,2024-02-01
112,uturoa,-16.7333,-151.4333,27.87,71,93,6.14,PF,2024-02-01
113,alice springs,-23.7,133.8833,23.45,20,0,3.09,AU,2024-02-01
114,vila velha,-20.3297,-40.2925,27.97,82,20,6.69,BR,2024-02-01
115,college,64.8569,-147.8028,-36.82,65,20,0.0,US,2024-02-01
116,dalhart,36.0595,-102.5133,21.01,18,0,6.69,US,2024-02-01
117,cannonvale,-20.2833,148.7,27.66,83,99,5.81,AU,2024-02-01
118,coquimbo,-29.9533,-71.3436,20.85,77,40,5.14,CL,2024-02-01
119,namanyere,-7.5167,31.05,15.83,96,86,1.08,TZ,2024-02-01
120,island harbour,50.724,-1.2758,6.63,89,93,3.28,GB,2024-02-01
121,ponta delgada,37.7333,-25.6667,18.44,88,40,5.14,PT,2024-02-01
122,rongelap,11.1635,166.8941,26.04,88,100,12.33,MH,2024-02-01
123,chul'man,56.8479,124.9104,-36.42,100,100,0.67,RU,2024-02-01
124,tiksi,71.6872,128.8694,-18.85,94,100,2.36,RU,2024-02-01
125,howrah,22.5892,88.3103,21.0,88,100,3.09,IN,2024-02-01
126,pechora,65.1472,57.2244,-6.19,94,44,4.92,RU,2024-02-01
127,luza,60.6308,47.2512,-4.09,95,100,4.87,RU,2024-02-01
128,sitka,57.0531,-135.33,1.94,60,100,4.12,US,2024-02-01
129,lorengau,-2.0226,147.2712,27.6,79,76,2.94,PG,2024-02-01
130,sinabang,2.4803,96.3801,27.22,80,79,1.86,ID,2024-02-01
131,margate,51.3813,1.3862,5.39,74,100,1.79,GB,2024-02-01
132,port elizabeth,-33.918,25.5701,22.4,94,20,7.72,ZA,2024-02-01
133,emerald,-23.5333,148.1667,23.52,91,18,2.49,AU,2024-02-01
134,samsula-spruce creek,29.0493,-81.0619,21.79,70,0,4.63,US,2024-02-01
135,pimentel,-6.8367,-79.9342,27.16,74,75,6.69,PE,2024-02-01
136,ciudad lazaro cardenas,17.9583,-102.2,28.43,66,100,3.32,MX,2024-02-01
137,talnakh,69.4865,88.3972,-15.44,86,100,7.58,RU,2024-02-01
138,siwa oasis,29.2041,25.5195,11.26,50,13,3.16,EG,2024-02-01
139,tsiombe,-25.3,45.4833,23.5,76,83,7.46,MG,2024-02-01
140,christchurch,-43.5333,172.6333,19.62,56,40,4.63,NZ,2024-02-01
141,ribeira grande,38.5167,-28.7,16.54,94,20,2.06,PT,2024-02-01
142,ghadamis,30.1337,9.5007,11.33,44,5,2.35,LY,2024-02-01
143,buka,40.8108,69.1986,-0.06,83,100,3.33,UZ,2024-02-01
144,carnarvon,-24.8667,113.6333,24.53,85,76,3.4,AU,2024-02-01
145,lebu,-37.6167,-73.65,18.67,79,3,5.75,CL,2024-02-01
146,novyy urengoy,66.0833,76.6333,-12.61,91,100,8.18,RU,2024-02-01
147,dedza,-14.3779,34.3332,14.28,90,23,1.02,MW,2024-02-01
148,chaman,30.9236,66.4512,6.17,33,4,1.66,PK,2024-02-01
149,yelizovo,53.1873,158.3805,-13.92,71,75,4.02,RU,2024-02-01
150,karratha,-20.7377,116.8463,28.34,68,95,6.75,AU,2024-02-01
151,pont rouge,48.8833,-72.0825,-1.94,97,100,4.29,CA,2024-02-01
152,tofol,5.3248,163.0078,27.77,81,100,5.97,FM,2024-02-01
153,danshui,22.7984,114.4672,19.0,95,58,1.16,CN,2024-02-01
154,jining,35.405,116.5814,-5.13,62,6,2.04,CN,2024-02-01
155,olavarria,-36.8927,-60.3225,40.24,10,22,3.85,AR,2024-02-01
156,taltal,-25.4,-70.4833,22.46,71,23,2.69,CL,2024-02-01
157,bilibino,68.0546,166.4372,-43.68,97,7,1.81,RU,2024-02-01
158,akureyri,65.6835,-18.0878,3.96,65,40,9.26,IS,2024-02-01
159,mogadishu,2.0371,45.3438,26.55,86,88,5.67,SO,2024-02-01
160,fort scott,37.8398,-94.7083,19.16,59,100,6.28,US,2024-02-01
161,korem,12.5058,39.5228,12.75,92,100,1.12,ET,2024-02-01
162,bani walid,31.7566,13.9942,10.77,54,0,1.82,LY,2024-02-01
163,santiago de veraguas,8.1,-80.9833,29.36,51,100,6.26,PA,2024-02-01
164,mancha real,37.7863,-3.6123,11.82,82,35,0.76,ES,2024-02-01
165,jabat,7.75,168.9751,27.36,84,51,9.73,MH,2024-02-01
166,nishinoomote,30.7333,131.0,16.89,81,100,6.98,JP,2024-02-01
167,iwamizawa,43.2003,141.7597,-6.07,86,100,2.7,JP,2024-02-01
168,tulnici,45.9167,26.6667,1.36,77,11,3.57,RO,2024-02-01
169,charters towers,-20.1,146.2667,24.67,80,100,3.96,AU,2024-02-01
170,kurmuk,10.55,34.2833,22.81,21,3,2.8,SD,2024-02-01
171,peniche,39.3558,-9.3811,15.25,82,10,3.3,PT,2024-02-01
172,toliara,-23.35,43.6667,27.41,69,92,4.68,MG,2024-02-01
173,keflavik,64.0049,-22.5624,3.24,100,100,3.09,IS,2024-02-01
174,mont-dore,-22.2833,166.5833,28.89,99,100,1.79,NC,2024-02-01
175,labuan,5.2767,115.2417,24.2,94,40,0.0,MY,2024-02-01
176,candido mendes,-1.4467,-45.7167,25.39,96,100,2.11,BR,2024-02-01
177,magadan,59.5667,150.8,-21.93,85,9,3.65,RU,2024-02-01
178,ta`u,-14.2336,-169.5144,28.73,76,100,3.76,AS,2024-02-01
179,lubawa,53.5043,19.7497,3.56,72,100,7.61,PL,2024-02-01
180,wanning,18.8003,110.3967,20.85,91,85,2.49,CN,2024-02-01
181,saipan,15.1355,145.701,24.39,94,100,8.75,MP,2024-02-01
182,colonia,50.9333,6.95,6.01,82,0,1.54,DE,2024-02-01
183,merizo village,13.2658,144.6691,26.31,87,51,9.75,GU,2024-02-01
184,mersa matruh,31.3525,27.2453,11.11,82,40,5.66,EG,2024-02-01
185,aasiaat,68.7098,-52.8699,-25.3,97,100,1.53,GL,2024-02-01
186,ambon,-3.6954,128.1814,26.16,15,40,0.51,ID,2024-02-01
187,crucecita,-28.95,-58.9833,32.51,35,0,4.43,AR,2024-02-01
188,virginia,37.5481,-77.4467,14.18,47,20,3.6,US,2024-02-01
189,smirnykh,49.75,142.8333,-21.5,88,100,2.68,RU,2024-02-01
190,san antonio,29.4241,-98.4936,22.79,61,100,4.12,US,2024-02-01
191,baruun-urt,46.6806,113.2792,-21.95,99,90,2.18,MN,2024-02-01
192,isla mujeres,21.2311,-86.731,26.03,62,19,3.52,MX,2024-02-01
193,asbestos,45.7668,-71.9324,1.75,99,100,3.45,CA,2024-02-01
194,krapivinskiy,54.9992,86.8133,-15.51,100,97,1.42,RU,2024-02-01
195,praia,14.9215,-23.5087,25.3,41,0,6.69,CV,2024-02-01
196,carnot,4.9409,15.8665,24.16,24,100,1.57,CF,2024-02-01
197,al qadarif,14.0349,35.3834,20.94,13,3,5.72,SD,2024-02-01
198,ziway,7.9333,38.7167,21.09,65,64,6.14,ET,2024-02-01
199,labrador city,52.9463,-66.9114,-18.05,50,20,0.0,CA,2024-02-01
200,puerto deseado,-47.7503,-65.8938,24.25,40,44,2.67,AR,2024-02-01
201,thompson,55.7435,-97.8558,-8.91,73,75,1.03,CA,2024-02-01
202,kingston,17.997,-76.7936,29.53,67,20,4.12,JM,2024-02-01
203,celestun,20.8667,-90.4,23.63,64,90,3.96,MX,2024-02-01
204,zhaotong,27.3167,103.7167,0.66,88,8,1.12,CN,2024-02-01
205,crane,31.3974,-102.3501,22.71,28,79,3.27,US,2024-02-01
206,raja,8.4596,25.678,22.81,18,92,2.97,SS,2024-02-01
207,timon,-5.0942,-42.8367,32.88,58,75,3.6,BR,2024-02-01
208,lerwick,60.1545,-1.1494,7.0,94,100,10.32,GB,2024-02-01
209,okhotsk,59.3833,143.3,-21.29,80,100,3.69,RU,2024-02-01
210,port lincoln,-34.7333,135.8667,16.07,87,2,3.32,AU,2024-02-01
211,bamiantong,44.9333,130.5333,-28.04,97,6,1.76,CN,2024-02-01
212,fale old settlement,-9.3852,-171.2468,28.16,81,100,8.44,TK,2024-02-01
213,moab,38.5733,-109.5498,15.27,45,100,3.97,US,2024-02-01
214,bonanza,14.0289,-84.591,28.09,46,83,2.73,NI,2024-02-01
215,baiyin,36.5583,104.2081,-4.03,90,100,2.45,CN,2024-02-01
216,tamanrasset,22.785,5.5228,13.95,14,0,2.06,DZ,2024-02-01
217,zhangye,38.9342,100.4517,-6.12,55,100,1.18,CN,2024-02-01
218,childress,34.4264,-100.204,23.14,33,0,6.69,US,2024-02-01
219,preobrazheniye,42.9019,133.9064,-13.13,63,49,3.04,RU,2024-02-01
220,santa cruz,-17.8,-63.1667,37.65,26,7,2.87,BO,2024-02-01
221,scarborough,54.2797,-0.4044,6.48,83,100,3.58,GB,2024-02-01
222,barsovo,61.1667,73.1667,-18.88,100,72,2.45,RU,2024-02-01
223,sade,11.3595,10.6732,22.11,21,81,6.29,NG,2024-02-01
224,tazovsky,67.4667,78.7,-12.32,94,100,8.25,RU,2024-02-01
225,marianna,30.7744,-85.2269,17.14,39,0,2.06,US,2024-02-01
226,stanley,54.868,-1.6985,6.01,78,40,4.63,GB,2024-02-01
227,ampanihy,-24.7,44.75,22.26,77,84,6.21,MG,2024-02-01
228,nema,57.5067,50.5011,-7.52,94,96,4.38,RU,2024-02-01
229,kavaratti,10.5669,72.642,27.46,66,100,4.7,IN,2024-02-01
230,ust-nera,64.5667,143.2,-31.29,100,100,1.69,RU,2024-02-01
231,vigan,17.5747,120.3869,22.44,82,52,1.92,PH,2024-02-01
232,fort mcmurray,56.7268,-111.381,7.77,65,0,2.06,CA,2024-02-01
233,corte,42.25,9.25,7.98,93,89,1.01,FR,2024-02-01
234,meizhou,24.2977,116.1072,18.45,95,74,1.07,CN,2024-02-01
235,ivdel',60.6911,60.4206,-16.01,100,88,0.89,RU,2024-02-01
236,haiku-pauwela,20.9219,-156.3051,26.76,70,20,1.54,US,2024-02-01
237,soio,-6.1349,12.3689,25.75,84,88,0.45,AO,2024-02-01
238,salinas,36.6777,-121.6555,17.13,72,75,4.63,US,2024-02-01
239,caleta de carquin,-11.0925,-77.6267,25.03,79,97,3.73,PE,2024-02-01
240,hadibu,12.65,54.0333,24.57,76,57,0.89,YE,2024-02-01
241,port alfred,-33.5906,26.891,22.32,97,42,2.24,ZA,2024-02-01
242,miquelon,47.0975,-56.3814,-1.0,72,93,3.58,PM,2024-02-01
243,susuman,62.7833,148.1667,-26.12,100,100,0.45,RU,2024-02-01
244,beaufort west,-32.3567,22.583,20.67,76,100,9.06,ZA,2024-02-01
245,pemangkat,1.1667,108.9667,24.49,93,99,2.79,ID,2024-02-01
246,berdigestyakh,62.0989,126.6992,-32.28,99,95,2.3,RU,2024-02-01
247,prince george,53.9166,-122.753,7.57,83,100,2.57,CA,2024-02-01
248,caravaca,38.1056,-1.8634,8.98,57,41,0.98,ES,2024-02-01
249,iwaki,37.05,140.8833,0.57,58,37,1.34,JP,2024-02-01
250,utrik,11.2278,169.8474,25.98,87,72,11.14,MH,2024-02-01
251,ninghai,29.2892,121.4247,6.19,90,100,4.19,CN,2024-02-01
252,jamestown,42.097,-79.2353,5.85,89,100,3.6,US,2024-02-01
253,cabo san lucas,22.8909,-109.9124,29.23,69,0,4.63,MX,2024-02-01
254,las tablas,7.7667,-80.2833,29.44,62,100,6.38,PA,2024-02-01
255,thinadhoo,0.5333,72.9333,27.93,76,79,5.45,MV,2024-02-01
256,taihecun,45.8,130.85,-26.57,92,6,1.83,CN,2024-02-01
257,dourados,-22.2211,-54.8056,33.3,25,77,3.96,BR,2024-02-01
258,brookings,44.3114,-96.7984,8.03,66,0,6.17,US,2024-02-01
259,bakchar,57.0186,82.0711,-19.04,100,89,1.4,RU,2024-02-01
260,merritt,50.1123,-120.7942,5.74,94,100,0.45,CA,2024-02-01
261,puerto colombia,10.9878,-74.9547,30.05,80,81,9.0,CO,2024-02-01
262,la passe,45.5549,-0.8967,11.13,96,100,2.56,FR,2024-02-01
263,abancay,-13.6339,-72.8814,20.88,69,93,2.81,PE,2024-02-01
264,valera,9.3178,-70.6036,27.55,77,100,1.02,VE,2024-02-01
265,hammerfest,70.6634,23.6821,-0.75,86,75,14.4,NO,2024-02-01
266,apolinario saravia,-24.4328,-63.9954,35.15,30,67,6.72,AR,2024-02-01
267,st. john's,47.5649,-52.7093,-1.85,79,75,5.66,CA,2024-02-01
268,micheweni,-4.9667,39.8333,27.07,76,100,3.1,TZ,2024-02-01
269,congonhas,-20.4997,-43.8578,22.34,88,87,0.83,BR,2024-02-01
270,kanniyakumari,8.0833,77.5667,26.34,81,96,2.22,IN,2024-02-01
271,donnacona,46.6804,-71.7239,1.17,100,100,1.03,CA,2024-02-01
272,barra de santo antonio,-9.4047,-35.5072,29.6,83,29,4.41,BR,2024-02-01
273,cidreira,-30.1811,-50.2056,24.44,74,0,4.85,BR,2024-02-01
274,nogliki,51.8333,143.1667,-20.28,91,100,5.71,RU,2024-02-01
275,homer,59.6425,-151.5483,-12.07,79,0,1.54,US,2024-02-01
276,machico,32.7,-16.7667,20.07,72,20,1.03,PT,2024-02-01
277,pisco,-13.7,-76.2167,28.03,61,0,9.26,PE,2024-02-01
278,natal,-5.795,-35.2094,30.36,65,0,5.14,BR,2024-02-01
279,bikenibeu village,1.3673,173.1241,28.98,89,75,4.12,KI,2024-02-01
280,kill devil hills,36.0307,-75.676,12.0,69,0,2.06,US,2024-02-01
281,qianjiang,30.4151,112.8859,-0.32,84,100,6.0,CN,2024-02-01
282,kumo,10.0447,11.2122,24.75,22,86,4.77,NG,2024-02-01
283,remire-montjoly,4.9167,-52.2667,29.02,61,0,4.63,GF,2024-02-01
284,saldanha,-33.0117,17.9442,26.03,84,4,1.89,ZA,2024-02-01
285,dapaong,10.8639,0.205,27.39,18,5,3.14,TG,2024-02-01
286,kisangani,0.5167,25.2,24.37,60,79,1.07,CD,2024-02-01
287,conduaga,8.862,117.4893,25.07,78,99,1.73,PH,2024-02-01
288,rio grande,-32.035,-52.0986,29.06,70,0,5.95,BR,2024-02-01
289,cromwell,41.5951,-72.6454,6.63,76,100,2.06,US,2024-02-01
290,mahdia,35.5047,11.0622,14.97,68,80,3.46,TN,2024-02-01
291,hasaki,35.7333,140.8333,3.22,61,100,8.18,JP,2024-02-01
292,greymouth,-42.4667,171.2,15.98,97,100,10.58,NZ,2024-02-01
293,hirara,24.8,125.2833,17.92,94,20,1.03,JP,2024-02-01
294,duong dong,10.2167,103.9667,23.0,94,20,0.0,VN,2024-02-01
295,grand falls-windsor,48.9332,-55.6649,-4.16,90,100,0.45,CA,2024-02-01
296,nouadhibou,20.931,-17.0347,23.99,35,0,4.12,MR,2024-02-01
297,arraial do cabo,-22.9661,-42.0278,26.98,78,75,4.63,BR,2024-02-01
298,port macquarie,-31.4333,152.9167,21.61,85,3,2.22,AU,2024-02-01
299,loch garman,52.3342,-6.4575,9.51,100,99,1.79,IE,2024-02-01
300,dali,25.7,100.1833,3.64,86,1,2.29,CN,2024-02-01
301,brwinow,52.1427,20.717,5.48,73,40,10.8,PL,2024-02-01
302,luderitz,-26.6481,15.1594,21.13,80,44,6.28,NA,2024-02-01
303,porto recanati,43.4365,13.6613,9.06,39,100,2.48,IT,2024-02-01
304,suicheng,33.8963,117.9331,-5.73,84,82,4.1,CN,2024-02-01
305,pangai,-19.8,-174.35,26.71,87,100,6.84,TO,2024-02-01
306,sao jose da coroa grande,-8.8978,-35.1478,27.28,76,40,4.7,BR,2024-02-01
307,inirida,3.8653,-67.9239,32.72,53,100,1.16,CO,2024-02-01
308,chonchi,-42.6128,-73.8092,24.64,56,99,1.77,CL,2024-02-01
309,meadow lakes,61.6247,-149.6011,-14.82,78,0,0.0,US,2024-02-01
310,srandakan,-7.9386,110.2506,25.36,89,100,4.96,ID,2024-02-01
311,zaozersk,69.4005,32.4476,-1.52,91,100,8.68,RU,2024-02-01
312,ancud,-41.8697,-73.8203,18.21,79,100,3.29,CL,2024-02-01
313,castillos,-34.1667,-53.8333,27.32,50,0,4.32,UY,2024-02-01
314,toamasina,-18.1667,49.3833,26.0,89,20,1.03,MG,2024-02-01
315,el nido,11.1858,119.3956,25.96,78,12,3.64,PH,2024-02-01
316,silopi,37.2497,42.4694,5.65,59,9,2.72,TR,2024-02-01
317,sosnovo-ozerskoye,52.5249,111.5418,-34.92,100,80,0.31,RU,2024-02-01
318,khandyga,62.6667,135.6,-40.76,100,98,1.27,RU,2024-02-01
319,dudinka,69.4058,86.1778,-15.21,91,100,11.05,RU,2024-02-01
320,megion,61.0296,76.1136,-16.99,100,92,2.41,RU,2024-02-01
321,kolonia town,6.964,158.206,28.0,83,75,6.17,FM,2024-02-01
322,sedan,49.6667,5.0,3.38,88,99,0.88,FR,2024-02-01
323,motygino,58.1831,94.7592,-28.45,99,23,1.79,RU,2024-02-01
324,kwang binh,17.4833,106.6,21.25,95,7,1.47,VN,2024-02-01
325,dryden,49.7833,-92.7503,-3.84,74,0,3.09,CA,2024-02-01
326,salaverry,-8.2333,-78.9667,25.21,86,100,3.53,PE,2024-02-01
327,bin yauri,10.7823,4.8114,29.0,16,56,3.63,NG,2024-02-01
328,vitry-le-francois,48.7333,4.5833,7.23,90,93,1.85,FR,2024-02-01
329,princeville,45.7668,-61.2985,1.06,86,100,0.0,CA,2024-02-01
330,walvis bay,-22.9575,14.5053,19.53,88,32,1.54,NA,2024-02-01
331,qui nhon,13.7667,109.2333,20.74,90,56,1.7,VN,2024-02-01
332,callao,-12.0667,-77.15,28.16,61,0,5.66,PE,2024-02-01
333,sigli,5.3848,95.9609,25.7,86,63,1.25,ID,2024-02-01
334,zaragoza,41.6561,-0.8773,11.25,73,0,9.77,ES,2024-02-01
335,hithadhoo,-0.6,73.0833,27.94,74,59,4.55,MV,2024-02-01
336,lakatoro,-16.0999,167.4164,28.55,75,9,1.56,VU,2024-02-01
337,tosontsengel,48.7567,98.2839,-30.27,97,55,0.12,MN,2024-02-01
338,ulladulla,-35.35,150.4667,18.76,85,99,1.86,AU,2024-02-01
339,sakata,38.9167,139.855,0.7,69,100,5.97,JP,2024-02-01
340,kimbe,-5.5502,150.1429,24.78,97,100,0.52,PG,2024-02-01
341,kitimat,54.0524,-128.6534,6.21,64,77,1.84,CA,2024-02-01
342,port hedland,-20.3167,118.5667,28.03,89,100,3.09,AU,2024-02-01
343,kigoma,-4.8769,29.6267,21.33,83,75,1.54,TZ,2024-02-01
344,presidente epitacio,-21.7633,-52.1156,35.31,27,40,1.91,BR,2024-02-01
345,wewak,-3.5534,143.6268,25.99,86,100,3.45,PG,2024-02-01
346,vilyuysk,63.7553,121.6247,-32.78,100,100,1.79,RU,2024-02-01
347,mahina,-17.5065,-149.489,30.87,62,0,7.2,PF,2024-02-01
348,lata,40.1629,-8.3327,12.26,81,13,1.6,PT,2024-02-01
349,guanare,9.0418,-69.7421,35.45,36,100,1.42,VE,2024-02-01
350,borrazopolis,-23.9411,-51.5875,26.3,58,29,2.38,BR,2024-02-01
351,san juan pueblo,15.5833,-87.2333,25.42,92,100,0.52,HN,2024-02-01
352,benghazi,32.1167,20.0667,14.56,55,86,6.28,LY,2024-02-01
353,alofi,-19.0595,-169.9187,25.12,92,100,6.32,NU,2024-02-01
354,khorixas,-20.3667,14.9667,23.57,72,100,4.9,NA,2024-02-01
355,lisakovsk,52.5369,62.4936,-18.96,100,100,2.77,KZ,2024-02-01
356,shimoda,34.6667,138.95,4.5,67,79,6.11,JP,2024-02-01
357,bukama,-9.2,25.85,21.34,96,100,0.77,CD,2024-02-01
358,bodaybo,57.8506,114.1933,-27.56,98,100,0.65,RU,2024-02-01
359,kununurra,-15.7667,128.7333,26.99,100,53,1.54,AU,2024-02-01
360,debre birhan,9.6833,39.5333,12.3,76,92,1.79,ET,2024-02-01
361,rawson,-43.3002,-65.1023,29.15,33,65,7.16,AR,2024-02-01
362,achit,56.7985,57.8994,-18.61,100,100,1.5,RU,2024-02-01
363,clovis,36.8252,-119.7029,14.94,76,75,4.12,US,2024-02-01
364,zouerate,22.7187,-12.4521,19.37,15,20,4.06,MR,2024-02-01
365,toropets,56.4978,31.6353,-0.77,94,100,4.73,RU,2024-02-01
366,port isabel,26.0734,-97.2086,25.03,68,20,8.23,US,2024-02-01
367,ngaruawahia,-37.6674,175.1555,21.34,84,98,4.02,NZ,2024-02-01
368,happy valley-goose bay,53.3168,-60.3315,-15.83,39,20,4.12,CA,2024-02-01
369,chos malal,-37.3781,-70.2709,35.39,10,1,1.24,AR,2024-02-01
370,oum hadjer,13.2954,19.6966,22.21,17,2,6.17,TD,2024-02-01
371,yakeshi,49.2833,120.7333,-38.39,99,35,1.09,CN,2024-02-01
372,saint-francois,46.4154,3.9054,8.69,100,100,1.03,FR,2024-02-01
373,yabelo,4.8833,38.0833,18.74,37,100,5.61,ET,2024-02-01
374,dalandzadgad,43.5708,104.425,-15.3,88,18,0.43,MN,2024-02-01
375,uray,60.1247,64.7758,-15.07,99,96,3.58,RU,2024-02-01
376,fort bragg,35.139,-79.006,14.91,51,0,3.09,US,2024-02-01
377,leava,-14.3,-178.1667,27.4,84,100,4.24,WF,2024-02-01
378,port blair,11.6667,92.75,27.02,83,20,0.51,IN,2024-02-01
379,gualeguay,-33.1416,-59.3097,39.85,14,1,5.41,AR,2024-02-01
380,laguna,38.421,-121.4238,15.68,73,40,3.09,US,2024-02-01
381,zenica,44.2014,17.9064,5.36,70,100,1.57,BA,2024-02-01
382,dunedin,-45.8742,170.5036,13.78,83,100,4.26,NZ,2024-02-01
383,gressier,18.55,-72.5167,28.22,73,81,4.19,HT,2024-02-01
384,jiayuguan,39.8167,98.3,-9.61,59,100,2.63,CN,2024-02-01
385,porto novo,6.4965,2.6036,28.9,84,69,2.6,BJ,2024-02-01
386,sona,45.4388,10.8255,6.29,87,76,1.54,IT,2024-02-01
387,pizarro,4.9533,-77.366,28.81,75,100,3.23,CO,2024-02-01
388,quiruvilca,-7.9667,-78.2,6.72,90,100,1.65,PE,2024-02-01
389,minab,27.1467,57.0801,19.66,69,63,1.86,IR,2024-02-01
390,wenxing,28.6667,112.8833,0.62,90,100,5.06,CN,2024-02-01
391,kerikeri,-35.2268,173.9474,20.51,90,75,0.45,NZ,2024-02-01
392,fukuecho,32.6881,128.8419,11.68,78,100,10.67,JP,2024-02-01
393,rio de teapa,17.7875,-92.8958,24.97,70,56,2.01,MX,2024-02-01
394,bengkulu,-3.8004,102.2655,24.6,89,100,1.62,ID,2024-02-01
395,trenggalek,-8.05,111.7167,24.88,91,100,1.17,ID,2024-02-01
396,banamba,13.55,-7.45,25.32,16,99,3.87,ML,2024-02-01
397,kanata,45.3159,-75.8985,3.32,88,100,4.63,CA,2024-02-01
398,meridianville,34.8515,-86.5722,14.46,49,0,0.0,US,2024-02-01
399,menaka,15.9182,2.4022,22.53,15,72,6.03,ML,2024-02-01
400,alo,7.4178,6.7371,29.52,22,52,0.91,NG,2024-02-01
401,bridgewater,44.3835,-64.5155,1.49,92,100,1.03,CA,2024-02-01
402,tambura,5.6,27.4667,23.46,22,51,2.14,SS,2024-02-01
403,trincomalee,8.5711,81.2335,26.8,81,81,2.86,LK,2024-02-01
404,sur,22.5667,59.5289,24.49,68,64,7.74,OM,2024-02-01
405,zeya,53.75,127.2667,-26.95,94,75,1.9,RU,2024-02-01
406,manokwari,-0.8667,134.0833,25.57,82,100,1.96,ID,2024-02-01
407,vorgashor,67.5833,63.95,-6.54,78,100,6.37,RU,2024-02-01
408,nova vicosa,-17.8919,-39.3719,25.85,76,38,4.74,BR,2024-02-01
409,chegdomyn,51.1167,133.0167,-35.25,100,88,0.79,RU,2024-02-01
410,aoji,42.5206,130.3953,-10.87,52,75,1.66,KP,2024-02-01
411,myeik,12.4333,98.6,24.23,84,1,1.46,MM,2024-02-01
412,severo-yeniseyskiy,60.3725,93.0408,-26.9,99,23,1.79,RU,2024-02-01
413,tripoli,32.8752,13.1875,13.2,64,1,2.06,LY,2024-02-01
414,simanggang,1.2472,111.4528,25.01,94,100,0.0,MY,2024-02-01
415,koulamoutou,-1.1303,12.4736,24.64,79,98,0.29,GA,2024-02-01
416,kailua-kona,19.6406,-155.9956,27.38,68,100,4.12,US,2024-02-01
417,vadso,70.0744,29.7487,0.49,93,100,7.72,NO,2024-02-01
418,melfi,40.9965,15.6514,4.16,87,100,1.83,IT,2024-02-01
419,buy,58.4786,41.53,-0.46,96,100,3.67,RU,2024-02-01
420,antsiranana,-12.2787,49.2917,24.93,87,49,1.45,MG,2024-02-01
421,khromtau,50.2503,58.4347,-12.26,94,67,4.41,KZ,2024-02-01
422,nadym,65.5333,72.5167,-11.64,90,100,8.15,RU,2024-02-01
423,zelenoborskiy,66.845,32.3622,-3.35,85,90,6.48,RU,2024-02-01
424,chibougamau,49.9168,-74.3659,-4.21,93,100,4.63,CA,2024-02-01
425,rostovka,55.3842,71.8891,-19.38,100,94,1.88,RU,2024-02-01
426,puerto baquerizo moreno,-0.9,-89.6,28.55,79,75,2.57,EC,2024-02-01
427,neon karlovasion,37.7903,26.7044,11.62,65,1,4.3,GR,2024-02-01
428,altamira,-3.2033,-52.2064,31.05,79,40,0.0,BR,2024-02-01
429,male,4.1748,73.5089,27.97,89,40,0.51,MV,2024-02-01
430,xiaoweizhai,26.1903,107.5125,7.04,97,100,1.64,CN,2024-02-01
431,bialong,6.9806,124.8889,23.53,95,100,0.7,PH,2024-02-01
432,palu,-0.8917,119.8707,24.1,95,86,0.94,ID,2024-02-01
433,ugoofaaru,5.6667,73.0,27.87,76,89,5.09,MV,2024-02-01
434,winnemucca,40.973,-117.7357,7.03,81,100,1.54,US,2024-02-01
435,pangoa,-12.1167,-73.0,23.96,94,100,0.4,PE,2024-02-01
436,belyy yar,53.6039,91.3903,-20.06,92,100,1.0,RU,2024-02-01
437,nantucket,41.2835,-70.0995,4.49,70,100,5.66,US,2024-02-01
438,santa isabel,-23.3156,-46.2214,25.84,88,68,2.57,BR,2024-02-01
439,ust'-uda,54.1742,103.0304,-30.94,100,85,0.41,RU,2024-02-01
440,garissa,-0.4536,39.6401,27.76,65,98,6.27,KE,2024-02-01
441,pacific grove,36.6177,-121.9166,16.9,80,75,5.81,US,2024-02-01
442,san andres,12.5847,-81.7006,28.01,69,20,5.14,CO,2024-02-01
443,trail,49.0998,-117.7022,10.54,94,100,1.12,CA,2024-02-01
444,puerto leguizamo,-0.1934,-74.7819,27.6,81,100,1.19,CO,2024-02-01
445,knyaze-volkonskoye,48.4642,135.4567,-20.81,100,95,1.81,RU,2024-02-01
446,yeppoon,-23.1333,150.7333,22.88,76,30,4.4,AU,2024-02-01
447,west end,26.6833,-78.9667,20.99,55,96,3.88,BS,2024-02-01
448,antofagasta,-23.65,-70.4,23.6,75,11,3.22,CL,2024-02-01
449,fortuna,40.5982,-124.1573,12.59,92,40,8.23,US,2024-02-01
450,linxia chengguanzhen,35.6003,103.2064,-3.17,95,100,1.19,CN,2024-02-01
451,mount isa,-20.7333,139.5,25.87,83,75,3.09,AU,2024-02-01
452,la ronge,55.1001,-105.2842,5.14,60,20,5.14,CA,2024-02-01
453,marathon,44.9,-89.7668,8.58,64,40,7.2,US,2024-02-01
454,hobyo,5.3505,48.5268,25.72,75,74,4.67,SO,2024-02-01
455,iskateley,67.6803,53.1512,-2.77,93,100,7.6,RU,2024-02-01
456,wawa,9.9022,4.4192,28.77,22,67,2.41,NG,2024-02-01
457,brisas de zicatela,15.8369,-97.0419,29.29,61,75,4.63,MX,2024-02-01
458,nyurba,63.2842,118.3319,-26.86,99,100,1.66,RU,2024-02-01
459,rabaul,-4.1967,152.1721,27.01,78,95,2.34,PG,2024-02-01
460,esqueda,30.7167,-109.5833,19.79,35,0,12.74,MX,2024-02-01
461,nova sintra,14.8667,-24.7167,21.46,68,80,3.82,CV,2024-02-01
462,les avirons,-21.2418,55.3394,24.03,88,75,11.32,RE,2024-02-01
463,road town,18.4167,-64.6167,28.05,74,20,1.54,VG,2024-02-01
464,bubaque,11.2833,-15.8333,26.25,72,100,5.5,GW,2024-02-01
465,kodinsk,58.6881,99.1844,-28.09,100,67,0.88,RU,2024-02-01
466,ilhabela,-23.7781,-45.3581,25.14,86,94,1.43,BR,2024-02-01
467,lazaro cardenas,17.9583,-102.2,27.76,68,99,3.23,MX,2024-02-01
468,namsos,64.4662,11.4957,-0.05,86,100,5.66,NO,2024-02-01
469,tralee,52.2704,-9.7026,9.4,97,98,3.46,IE,2024-02-01
470,gharyan,32.1722,13.0203,7.59,59,1,1.78,LY,2024-02-01
471,corbu,44.3833,28.65,1.62,69,0,4.12,RO,2024-02-01
472,peace river,56.2501,-117.286,4.17,81,100,3.09,CA,2024-02-01
473,biloela,-24.4167,150.5,22.59,75,2,3.63,AU,2024-02-01
474,bhinmal,25.0,72.25,16.84,65,53,1.56,IN,2024-02-01
475,pandan,14.0453,124.1694,24.36,83,91,3.95,PH,2024-02-01
476,manistee,44.2445,-86.3242,7.01,77,75,5.66,US,2024-02-01
477,gazojak,41.1875,61.4036,-0.91,56,14,3.13,TM,2024-02-01
478,iquique,-20.2208,-70.1431,24.02,71,57,3.07,CL,2024-02-01
479,ruginoasa,47.25,26.85,-0.58,83,65,2.14,RO,2024-02-01
480,uliastay,47.7417,96.8444,-21.15,68,15,3.14,MN,2024-02-01
481,awjilah,29.1081,21.2869,10.67,51,11,4.01,LY,2024-02-01
482,tomarovka,50.6834,36.2331,1.42,99,100,5.81,RU,2024-02-01
483,huntsville,34.7304,-86.5861,15.15,49,0,0.89,US,2024-02-01
484,bamyan,34.75,67.25,-19.14,71,0,2.36,AF,2024-02-01
485,poronaysk,49.2167,143.1167,-24.64,96,72,1.55,RU,2024-02-01
486,sept-iles,50.2001,-66.3821,-9.76,47,100,2.06,CA,2024-02-01
487,bheramara,24.0232,88.9925,17.94,86,3,1.27,BD,2024-02-01
488,sirsa,29.5333,75.0167,10.92,97,7,3.62,IN,2024-02-01
489,linares,-35.85,-71.6,37.65,9,0,3.85,CL,2024-02-01
490,kachug,53.9606,105.8817,-33.86,100,55,0.45,RU,2024-02-01
491,azemmour,33.2895,-8.3425,13.93,81,0,2.02,MA,2024-02-01
492,lisala,2.15,21.5167,24.34,58,59,0.32,CD,2024-02-01
493,lompoc,34.6391,-120.4579,17.66,67,75,2.68,US,2024-02-01
494,cosala,24.4125,-106.6908,31.09,23,1,3.08,MX,2024-02-01
495,nemuro,43.3236,145.575,-9.08,67,46,6.76,JP,2024-02-01
496,touros,-5.1989,-35.4608,27.41,71,11,5.62,BR,2024-02-01
497,hilton head island,32.2163,-80.7526,17.06,65,0,2.57,US,2024-02-01
498,ebon,4.582,168.6964,28.0,79,100,7.24,MH,2024-02-01
499,berrotaran,-32.451,-64.3887,36.08,20,0,7.06,AR,2024-02-01
500,murghob,38.1702,73.9667,-20.7,58,9,3.6,TJ,2024-02-01
501,greenville,35.6127,-77.3663,14.09,52,0,3.09,US,2024-02-01
502,urangan,-25.3,152.9,22.89,94,2,2.68,AU,2024-02-01
503,kalabo,-14.97,22.6814,22.11,74,52,1.89,ZM,2024-02-01
504,codrington,-38.2667,141.9667,14.94,71,2,3.79,AU,2024-02-01
505,fraserburgh,57.6874,-2.0184,8.95,88,100,5.01,GB,2024-02-01
506,kutum,14.2,24.6667,13.57,24,22,4.85,SD,2024-02-01
507,maridi,4.9158,29.4742,25.96,21,100,1.79,SS,2024-02-01
508,ryotsu-minato,38.0833,138.4333,0.47,64,63,1.47,JP,2024-02-01
509,saudarkrokur,65.7461,-19.6394,2.3,94,100,4.89,IS,2024-02-01
510,aswan,24.0934,32.907,12.61,37,0,4.63,EG,2024-02-01
511,hami,42.8,93.45,-4.5,52,5,2.56,CN,2024-02-01
512,santa terezinha,-29.9002,-50.0904,24.72,73,0,4.28,BR,2024-02-01
513,prado,-17.3411,-39.2208,25.28,81,14,3.49,BR,2024-02-01
514,puerto armuelles,8.2833,-82.8667,31.99,64,96,0.45,PA,2024-02-01
515,north battleford,52.7834,-108.2847,6.34,81,0,4.63,CA,2024-02-01
516,ljusdal,61.8288,16.0913,-2.61,75,48,5.29,SE,2024-02-01
517,vada,51.97,5.6667,4.94,91,100,2.57,NL,2024-02-01
518,orcopampa,-15.2661,-72.3417,15.53,57,95,4.03,PE,2024-02-01
519,hillsboro,45.5229,-122.9898,16.57,65,40,4.12,US,2024-02-01
520,tuy hoa,13.0833,109.3,20.29,92,86,1.61,VN,2024-02-01
521,pelabuhanratu,-6.9875,106.5514,25.75,89,100,0.18,ID,2024-02-01
522,kupino,54.3663,77.2981,-11.25,94,100,2.87,RU,2024-02-01
523,klaksvik,62.2266,-6.589,6.51,97,100,9.49,FO,2024-02-01
524,caleta olivia,-46.4393,-67.5281,29.05,22,89,10.16,AR,2024-02-01
525,andujar,38.0392,-4.0508,13.18,54,27,1.82,ES,2024-02-01
526,yanjiang,30.1211,104.6481,5.6,93,10,2.14,CN,2024-02-01
527,saint-joseph,-21.3667,55.6167,24.21,87,76,8.16,RE,2024-02-01
528,noshiro,40.2039,140.0242,-1.13,68,100,7.47,JP,2024-02-01
529,mao,39.8885,4.2658,12.31,94,0,4.12,ES,2024-02-01
530,upper grand lagoon,30.1633,-85.7408,17.08,53,0,4.63,US,2024-02-01
531,dawson creek,55.7666,-120.2362,1.8,80,0,1.03,CA,2024-02-01
532,la'ie,21.6477,-157.9253,25.03,87,85,0.89,US,2024-02-01
533,tokoroa,-38.2333,175.8667,16.64,93,100,3.33,NZ,2024-02-01
534,novodvinsk,64.4165,40.8122,0.86,83,100,5.61,RU,2024-02-01
535,esquel,-42.9,-71.3167,24.04,33,100,5.42,AR,2024-02-01
536,necochea,-38.5473,-58.7368,28.49,52,11,3.83,AR,2024-02-01
537,kapa'a,22.0752,-159.319,25.26,71,100,1.54,US,2024-02-01
538,tulun,54.5611,100.5792,-21.83,96,100,1.49,RU,2024-02-01
539,kapuskasing,49.4169,-82.4331,-9.95,85,100,6.69,CA,2024-02-01
540,gimcheon,36.1218,128.1198,2.62,69,100,1.54,KR,2024-02-01
541,farnham,51.2143,-0.7959,5.42,78,0,4.63,GB,2024-02-01
542,barrouallie,13.2333,-61.2667,27.79,74,40,0.0,VC,2024-02-01
543,antonio enes,-16.2325,39.9086,26.27,76,100,1.32,MZ,2024-02-01
544,linguaglossa,37.8432,15.1388,9.8,66,24,2.26,IT,2024-02-01
545,ha'il,27.5219,41.6907,8.01,57,40,6.17,SA,2024-02-01
546,umm kaddadah,13.6017,26.6876,15.53,23,1,6.68,SD,2024-02-01
547,musoma,-1.5,33.8,23.01,78,20,0.0,TZ,2024-02-01
548,xam nua,20.4197,104.0439,13.27,66,58,1.36,LA,2024-02-01
549,vredendal,-31.6683,18.5012,28.19,50,1,6.94,ZA,2024-02-01
550,kolonia,50.9333,6.95,6.01,82,0,1.54,DE,2024-02-01
551,marsh harbour,26.5412,-77.0636,20.58,55,98,6.43,BS,2024-02-01
552,az zulfi,26.2995,44.8154,11.57,36,0,6.14,SA,2024-02-01
553,oranjemund,-28.55,16.4333,20.45,85,49,1.92,NA,2024-02-01
554,kumertau,52.7667,55.7833,-14.94,99,98,2.64,RU,2024-02-01
555,basco,20.4487,121.9702,23.65,84,88,7.63,PH,2024-02-01
556,tikhvin,59.6451,33.5294,0.12,94,100,4.7,RU,2024-02-01
557,saint-pierre,-21.3393,55.4781,24.82,94,100,11.83,RE,2024-02-01
558,tura,25.5198,90.2201,13.97,72,3,1.21,IN,2024-02-01
559,vernon,50.2581,-119.2691,7.39,93,100,1.03,CA,2024-02-01
560,muang khong,14.1167,105.85,23.75,65,81,0.61,LA,2024-02-01
561,selizharovo,56.8519,33.4487,-1.43,92,99,4.64,RU,2024-02-01
562,filadelfia,39.9523,-75.1638,9.6,65,75,3.6,US,2024-02-01
563,upington,-28.4478,21.2561,30.21,42,72,8.23,ZA,2024-02-01
564,bel ombre,-4.6167,55.4167,27.91,78,40,3.6,SC,2024-02-01
565,richards bay,-28.783,32.0377,22.12,87,3,2.31,ZA,2024-02-01
566,kalengwa,-13.4659,25.0027,17.52,96,51,1.86,ZM,2024-02-01
567,hotan,37.0997,79.9269,-3.71,86,100,2.26,CN,2024-02-01
568,port lavaca,28.615,-96.6261,24.06,71,40,5.14,US,2024-02-01
569,markaz-e hukumat-e darweshan,31.1323,64.1934,9.68,23,13,2.25,AF,2024-02-01
570,puerto rosario,-24.45,-57.0833,40.1,17,10,3.25,PY,2024-02-01
571,quba,41.3626,48.5152,1.98,58,8,2.15,AZ,2024-02-01
572,farasan,16.7022,42.1183,25.4,73,81,7.03,SA,2024-02-01
573,sandnessjoen,66.0217,12.6316,1.06,75,75,5.14,NO,2024-02-01
574,kosh-agach,50.0,88.6667,-22.61,87,100,2.24,RU,2024-02-01
575,moroni,-11.7022,43.2551,26.34,81,100,0.66,KM,2024-02-01
576,shitanjing,39.2342,106.3439,-4.66,81,100,2.8,CN,2024-02-01
577,guaratuba,-25.8828,-48.5747,26.97,83,52,2.53,BR,2024-02-01
